[
    {
      "geometry": {
        "location": {
          "lat": 13.182003881272724,
          "lng": 74.93546812529083
        },
        "viewport": {
          "northeast": {
            "lat": 37.8090395802915,
            "lng": -122.4181850697085
          },
          "southwest": {
            "lat": 37.8063416197085,
            "lng": -122.4208830302915
          }
        }
      },
      "name": "Hotel Shetty's",
      "phone": 0,
      "note": "",
      "inout": "out",
      "cat": "food",
      "imgUrl": ""
    },
    {
      "geometry": {
        "location": {
          "lat": 13.182198052773389,
          "lng": 74.93790481587347
        },
        "viewport": {
          "northeast": {
            "lat": 37.8090395802915,
            "lng": -122.4181850697085
          },
          "southwest": {
            "lat": 37.8063416197085,
            "lng": -122.4208830302915
          }
        }
      },
      "name": "Sanmathi Cafe",
      "phone": 0,
      "note": "",
      "inout": "out",
      "cat": "food",
      "imgUrl": ""
    },
    {
      "geometry": {
        "location": {
          "lat": 13.183179236521703,
          "lng": 74.93662351268289
        },
        "viewport": {
          "northeast": {
            "lat": 37.8090395802915,
            "lng": -122.4181850697085
          },
          "southwest": {
            "lat": 37.8063416197085,
            "lng": -122.4208830302915
          }
        }
      },
      "name": "Shabari",
      "phone": 0,
      "note": "",
      "inout": "out",
      "cat": "food",
      "imgUrl": ""
    },
    {
      "geometry": {
        "location": {
          "lat": 13.183513897912382,
          "lng": 74.93648961370626
        },
        "viewport": {
          "northeast": {
            "lat": 37.8090395802915,
            "lng": -122.4181850697085
          },
          "southwest": {
            "lat": 37.8063416197085,
            "lng": -122.4208830302915
          }
        }
      },
      "name": "Harshitha",
      "phone": 0,
      "note": "",
      "inout": "out",
      "cat": "food",
      "imgUrl": ""
    },
    {
      "geometry": {
        "location": {
          "lat": 13.184237848520878,
          "lng": 74.93442979220897
        },
        "viewport": {
          "northeast": {
            "lat": 37.8090395802915,
            "lng": -122.4181850697085
          },
          "southwest": {
            "lat": 37.8063416197085,
            "lng": -122.4208830302915
          }
        }
      },
      "name": "Shisha Food Court",
      "phone": 0,
      "note": "",
      "inout": "out",
      "cat": "food",
      "imgUrl": "https://firebasestorage.googleapis.com/v0/b/academic-script-312305.appspot.com/o/IMG20220831154314.jpg?alt=media&token=1d83e991-ef57-4100-ba19-7998329c9798"
    },
    {
      "geometry": {
        "location": {
          "lat": 13.184107478857557,
          "lng": 74.933105986856
        },
        "viewport": {
          "northeast": {
            "lat": 37.8090395802915,
            "lng": -122.4181850697085
          },
          "southwest": {
            "lat": 37.8063416197085,
            "lng": -122.4208830302915
          }
        }
      },
      "name": "Oven Fresh",
      "phone": 0,
      "note": "",
      "inout": "out",
      "cat": "food",
      "imgUrl": "https://firebasestorage.googleapis.com/v0/b/academic-script-312305.appspot.com/o/IMG20220831154034.jpg?alt=media&token=85382676-0611-485d-a9b9-f6db9fe01925"
    },
    {
      "geometry": {
        "location": {
          "lat": 13.18284248361419,
          "lng": 74.93338782222246
        },
        "viewport": {
          "northeast": {
            "lat": 37.8090395802915,
            "lng": -122.4181850697085
          },
          "southwest": {
            "lat": 37.8063416197085,
            "lng": -122.4208830302915
          }
        }
      },
      "name": "Kitchen Bells",
      "phone": 0,
      "note": "",
      "inout": "in",
      "cat": "food",
      "imgUrl": "https://firebasestorage.googleapis.com/v0/b/academic-script-312305.appspot.com/o/IMG20220831150830.jpg?alt=media&token=8a118236-2ca9-40e6-9658-f1326417a421"
    },
    {
      "geometry": {
        "location": {
          "lat": 13.182678483051243,
          "lng": 74.93517660072271
        },
        "viewport": {
          "northeast": {
            "lat": 37.8090395802915,
            "lng": -122.4181850697085
          },
          "southwest": {
            "lat": 37.8063416197085,
            "lng": -122.4208830302915
          }
        }
      },
      "name": "Maggi shop",
      "phone": 0,
      "note": "",
      "inout": "in",
      "cat": "food",
      "imgUrl": "https://firebasestorage.googleapis.com/v0/b/academic-script-312305.appspot.com/o/IMG20220831144546.jpg?alt=media&token=09507c68-dc0d-44f1-9302-91e3f2b60ea7"
    },
    {
      "geometry": {
        "location": {
          "lat": 13.182770214687078,
          "lng": 74.93376474826671
        },
        "viewport": {
          "northeast": {
            "lat": 37.8090395802915,
            "lng": -122.4181850697085
          },
          "southwest": {
            "lat": 37.8063416197085,
            "lng": -122.4208830302915
          }
        }
      },
      "name": "Raghanna's",
      "phone": 0,
      "note": "",
      "inout": "in",
      "cat": "food",
      "imgUrl": "https://firebasestorage.googleapis.com/v0/b/academic-script-312305.appspot.com/o/IMG20220831150115.jpg?alt=media&token=4fcb2935-ad0a-4bae-ad1f-906214073572"
    },
    {
      "geometry": {
        "location": {
          "lat": 13.182316689589411,
          "lng": 74.93406774184405
        },
        "viewport": {
          "northeast": {
            "lat": 37.8090395802915,
            "lng": -122.4181850697085
          },
          "southwest": {
            "lat": 37.8063416197085,
            "lng": -122.4208830302915
          }
        }
      },
      "name": "NMAMIT/Shri Durga Canteen",
      "phone": 0,
      "note": "",
      "inout": "in",
      "cat": "food",
      "imgUrl": "https://firebasestorage.googleapis.com/v0/b/academic-script-312305.appspot.com/o/IMG20220831145941.jpg?alt=media&token=16acb972-e3cb-4336-acd4-ef60c677b1c6"
    },
    {
      "geometry": {
        "location": {
          "lat": 13.182715440934512,
          "lng": 74.93452182238465
        },
        "viewport": {
          "northeast": {
            "lat": 37.8090395802915,
            "lng": -122.4181850697085
          },
          "southwest": {
            "lat": 37.8063416197085,
            "lng": -122.4208830302915
          }
        }
      },
      "name": "Suprabha",
      "phone": 0,
      "note": "",
      "inout": "in",
      "cat": "food",
      "imgUrl": "https://firebasestorage.googleapis.com/v0/b/academic-script-312305.appspot.com/o/IMG20220831144347.jpg?alt=media&token=b3dbf03a-ca6f-4c73-8a69-bfe9ff32447a"
    },
    {
      "geometry": {
        "location": {
          "lat": 13.182671553442159,
          "lng": 74.93412563404472
        },
        "viewport": {
          "northeast": {
            "lat": 37.8074053802915,
            "lng": -122.4191828197085
          },
          "southwest": {
            "lat": 37.80470741970851,
            "lng": -122.4218807802915
          }
        }
      },
      "name": "ATREYA",
      "phone": 0,
      "note": "",
      "inout": "in",
      "cat": "block",
      "imgUrl": "https://firebasestorage.googleapis.com/v0/b/academic-script-312305.appspot.com/o/IMG20220831150033.jpg?alt=media&token=72d651e2-1498-471a-a8a2-6598642a964c"
    },
    {
      "geometry": {
        "location": {
          "lat": 13.182581468576208,
          "lng": 74.93483497724327
        },
        "viewport": {
          "northeast": {
            "lat": 37.8090395802915,
            "lng": -122.4181850697085
          },
          "southwest": {
            "lat": 37.8063416197085,
            "lng": -122.4208830302915
          }
        }
      },
      "name": "ATAL",
      "phone": 0,
      "note": "",
      "inout": "in",
      "cat": "block",
      "imgUrl": "https://firebasestorage.googleapis.com/v0/b/academic-script-312305.appspot.com/o/IMG20220831144535.jpg?alt=media&token=64ba8a91-4e0f-4428-952d-cadc16bdf81c"
    },
    {
      "geometry": {
        "location": {
          "lat": 13.18290334253753,
          "lng": 74.93327064991891
        },
        "viewport": {
          "northeast": {
            "lat": 37.8090395802915,
            "lng": -122.4181850697085
          },
          "southwest": {
            "lat": 37.8063416197085,
            "lng": -122.4208830302915
          }
        }
      },
      "name": "CV Raman/CVR",
      "phone": 0,
      "note": "First years'",
      "inout": "in",
      "cat": "block",
      "imgUrl": ""
    },
    {
      "geometry": {
        "location": {
          "lat": 13.182469111731345,
          "lng": 74.93358768215609
        },
        "viewport": {
          "northeast": {
            "lat": 37.7771379302915,
            "lng": -122.4106816697085
          },
          "southwest": {
            "lat": 37.7744399697085,
            "lng": -122.4133796302915
          }
        }
      },
      "name": "SIR M VISVESVARAYA/VIS",
      "rating": 4,
      "note": "CIVIL/EE",
      "inout": "in",
      "cat": "block",
      "imgUrl": "https://firebasestorage.googleapis.com/v0/b/academic-script-312305.appspot.com/o/blcVIS.jpg?alt=media&token=d49e4b16-331d-4401-9ad1-cf9b2957cca3"
    },
    {
      "geometry": {
        "location": {
          "lat": 13.183010915209202,
          "lng": 74.93394291800146
        },
        "viewport": {
          "northeast": {
            "lat": 37.8074053802915,
            "lng": -122.4191828197085
          },
          "southwest": {
            "lat": 37.80470741970851,
            "lng": -122.4218807802915
          }
        }
      },
      "name": "S RAMANUJAN/RAM",
      "phone": 0,
      "note": "MECH/EC",
      "inout": "NA",
      "cat": "block",
      "imgUrl": "https://firebasestorage.googleapis.com/v0/b/academic-script-312305.appspot.com/o/IMG20220831141739.jpg?alt=media&token=8aacfa95-2ea6-4eb9-84f9-75e94e3e8a05"
    },
    {
      "geometry": {
        "location": {
          "lat": 13.18331782186854,
          "lng": 74.93365618783577
        },
        "viewport": {
          "northeast": {
            "lat": 37.8074053802915,
            "lng": -122.4191828197085
          },
          "southwest": {
            "lat": 37.80470741970851,
            "lng": -122.4218807802915
          }
        }
      },
      "name": "APJ KALAM/APJ",
      "phone": 0,
      "note": "CS/IS/BT",
      "inout": "in",
      "cat": "block",
      "imgUrl": "https://firebasestorage.googleapis.com/v0/b/academic-script-312305.appspot.com/o/IMG20220831141639.jpg?alt=media&token=408edcfa-8ca1-4e4b-92fc-cadce45faf05"
    },
    {
      "geometry": {
        "location": {
          "lat": 13.183512343936814,
          "lng": 74.93352067579805
        },
        "viewport": {
          "northeast": {
            "lat": 37.7404190302915,
            "lng": -122.4159020697085
          },
          "southwest": {
            "lat": 37.7377210697085,
            "lng": -122.4186000302915
          }
        }
      },
      "name": "Shambhavi hall",
      "phone": 0,
      "note": "",
      "inout": "in",
      "cat": "hall",
      "imgUrl": "https://firebasestorage.googleapis.com/v0/b/academic-script-312305.appspot.com/o/IMG20220831141949.jpg?alt=media&token=8adea179-2072-464b-8bc8-8bf3150917a9"
    },
    {
      "geometry": {
        "location": {
          "lat": 13.183000343234113,
          "lng": 74.93414186052317
        },
        "viewport": {
          "northeast": {
            "lat": 37.7404190302915,
            "lng": -122.4159020697085
          },
          "southwest": {
            "lat": 37.7377210697085,
            "lng": -122.4186000302915
          }
        }
      },
      "name": "Phalguni",
      "phone": 0,
      "note": "",
      "inout": "in",
      "cat": "hall",
      "imgUrl": "https://firebasestorage.googleapis.com/v0/b/academic-script-312305.appspot.com/o/IMG20220831142841.jpg?alt=media&token=249c48d6-33ca-4b6b-8567-910475b1e8e6"
    },
    {
      "geometry": {
        "location": {
          "lat": 13.183000343234113,
          "lng": 74.93414186052317
        },
        "viewport": {
          "northeast": {
            "lat": 37.7404190302915,
            "lng": -122.4159020697085
          },
          "southwest": {
            "lat": 37.7377210697085,
            "lng": -122.4186000302915
          }
        }
      },
      "name": "Sowparnika",
      "phone": 0,
      "note": "",
      "inout": "NA",
      "cat": "hall",
      "imgUrl": "https://firebasestorage.googleapis.com/v0/b/academic-script-312305.appspot.com/o/IMG20220831142200.jpg?alt=media&token=73cbf431-d8ee-4e9b-a4eb-16f518e270f4"
    },
    {
      "geometry": {
        "location": {
          "lat": 13.183000343234113,
          "lng": 74.93414186052317
        },
        "viewport": {
          "northeast": {
            "lat": 37.7404190302915,
            "lng": -122.4159020697085
          },
          "southwest": {
            "lat": 37.7377210697085,
            "lng": -122.4186000302915
          }
        }
      },
      "name": "Sambhram hall",
      "phone": 0,
      "note": "",
      "inout": "in",
      "cat": "hall",
      "imgUrl": "https://firebasestorage.googleapis.com/v0/b/academic-script-312305.appspot.com/o/IMG20220831141949.jpg?alt=media&token=7c0a88a5-4e69-4282-9cc6-ead6ac11bb06"
    },
    {
      "geometry": {
        "location": {
          "lat": 13.182754460704484,
          "lng": 74.93531689661887
        },
        "viewport": {
          "northeast": {
            "lat": 37.7404190302915,
            "lng": -122.4159020697085
          },
          "southwest": {
            "lat": 37.7377210697085,
            "lng": -122.4186000302915
          }
        }
      },
      "name": "Sadananda hall",
      "phone": 0,
      "note": "",
      "inout": "in",
      "cat": "hall",
      "imgUrl": "https://firebasestorage.googleapis.com/v0/b/academic-script-312305.appspot.com/o/IMG20220831145655.jpg?alt=media&token=79c55b57-86a8-4f90-98aa-f0263fb43ccd"
    },
    {
      "geometry": {
        "location": {
          "lat": 13.183000343234113,
          "lng": 74.93414186052317
        },
        "viewport": {
          "northeast": {
            "lat": 37.7404190302915,
            "lng": -122.4159020697085
          },
          "southwest": {
            "lat": 37.7377210697085,
            "lng": -122.4186000302915
          }
        }
      },
      "name": "MCA Seminar hall",
      "phone": 0,
      "note": "",
      "inout": "in",
      "cat": "hall",
      "imgUrl": "https://firebasestorage.googleapis.com/v0/b/academic-script-312305.appspot.com/o/IMG20220831143821.jpg?alt=media&token=727a720b-5f5b-4198-a31a-039dd2d7b570"
    },
    {
      "geometry": {
        "location": {
          "lat": 13.183000343234113,
          "lng": 74.93414186052317
        },
        "viewport": {
          "northeast": {
            "lat": 37.7404190302915,
            "lng": -122.4159020697085
          },
          "southwest": {
            "lat": 37.7377210697085,
            "lng": -122.4186000302915
          }
        }
      },
      "name": "Central library",
      "phone": 0,
      "note": "1st floor, RAM",
      "inout": "NA",
      "cat": "library",
      "imgUrl": "https://firebasestorage.googleapis.com/v0/b/academic-script-312305.appspot.com/o/IMG20220831142304.jpg?alt=media&token=10cbae22-c241-4b3b-991c-409d62576187"
    },
    {
      "geometry": {
        "location": {
          "lat": 13.183322933777333,
          "lng": 74.93360736294888
        },
        "viewport": {
          "northeast": {
            "lat": 37.7404190302915,
            "lng": -122.4159020697085
          },
          "southwest": {
            "lat": 37.7377210697085,
            "lng": -122.4186000302915
          }
        }
      },
      "name": "Research Lab",
      "phone": 0,
      "note": "",
      "inout": "in",
      "cat": "lab",
      "imgUrl": "https://firebasestorage.googleapis.com/v0/b/academic-script-312305.appspot.com/o/IMG20220831144659.jpg?alt=media&token=08b03d37-9517-48b7-9e6c-478a2a60d014"
    },
    {
      "geometry": {
        "location": {
          "lat": 13.182562265062005,
          "lng": 74.93481443035166
        },
        "viewport": {
          "northeast": {
            "lat": 37.7404190302915,
            "lng": -122.4159020697085
          },
          "southwest": {
            "lat": 37.7377210697085,
            "lng": -122.4186000302915
          }
        }
      },
      "name": "Metallurgy Lab",
      "phone": 0,
      "note": "",
      "inout": "in",
      "cat": "lab",
      "imgUrl": "https://firebasestorage.googleapis.com/v0/b/academic-script-312305.appspot.com/o/IMG20220831144726.jpg?alt=media&token=7aadb517-8a72-419e-a390-cf25e4d9c0b9"
    },
    {
      "geometry": {
        "location": {
          "lat": 13.182988320925515,
          "lng": 74.93386885509776
        },
        "viewport": {
          "northeast": {
            "lat": 37.7404190302915,
            "lng": -122.4159020697085
          },
          "southwest": {
            "lat": 37.7377210697085,
            "lng": -122.4186000302915
          }
        }
      },
      "name": "Chemistry Lab",
      "phone": 0,
      "note": "",
      "inout": "in",
      "cat": "lab",
      "imgUrl": "https://firebasestorage.googleapis.com/v0/b/academic-script-312305.appspot.com/o/IMG20220831142450.jpg?alt=media&token=a950970e-d350-421b-afe4-2e1f6ce6951d"
    },
    {
      "geometry": {
        "location": {
          "lat": 13.182970848616893,
          "lng": 74.93396686362789
        },
        "viewport": {
          "northeast": {
            "lat": 37.7404190302915,
            "lng": -122.4159020697085
          },
          "southwest": {
            "lat": 37.7377210697085,
            "lng": -122.4186000302915
          }
        }
      },
      "name": "CAD/CAE/CFD Lab",
      "phone": 0,
      "note": "",
      "inout": "in",
      "cat": "lab",
      "imgUrl": "https://firebasestorage.googleapis.com/v0/b/academic-script-312305.appspot.com/o/IMG20220831142646.jpg?alt=media&token=eaa3bc78-6929-4ff1-aec3-ece1ba3d82bd"
    },
    {
      "geometry": {
        "location": {
          "lat": 13.182988320925515,
          "lng": 74.93386885509776
        },
        "viewport": {
          "northeast": {
            "lat": 37.7404190302915,
            "lng": -122.4159020697085
          },
          "southwest": {
            "lat": 37.7377210697085,
            "lng": -122.4186000302915
          }
        }
      },
      "name": "Physics Lab",
      "phone": 0,
      "note": "",
      "inout": "in",
      "cat": "lab",
      "imgUrl": "https://firebasestorage.googleapis.com/v0/b/academic-script-312305.appspot.com/o/IMG20220831142435.jpg?alt=media&token=e0331a89-b9e7-48d9-a072-34900e9af8e8"
    },
    {
      "geometry": {
        "location": {
          "lat": 13.183098530836642,
          "lng": 74.93425122640498
        },
        "viewport": {
          "northeast": {
            "lat": 37.7404190302915,
            "lng": -122.4159020697085
          },
          "southwest": {
            "lat": 37.7377210697085,
            "lng": -122.4186000302915
          }
        }
      },
      "name": "VLSI Lab",
      "phone": 0,
      "note": "",
      "inout": "in",
      "cat": "lab",
      "imgUrl": "https://firebasestorage.googleapis.com/v0/b/academic-script-312305.appspot.com/o/IMG20220831142746.jpg?alt=media&token=f4852a82-2e4a-4dec-bf45-153b966d1b82"
    },
    {
      "geometry": {
        "location": {
          "lat": 13.183098530836642,
          "lng": 74.93425122640498
        },
        "viewport": {
          "northeast": {
            "lat": 37.7404190302915,
            "lng": -122.4159020697085
          },
          "southwest": {
            "lat": 37.7377210697085,
            "lng": -122.4186000302915
          }
        }
      },
      "name": "ARM PROCESSOR Lab",
      "phone": 0,
      "note": "2",
      "inout": "in",
      "cat": "lab",
      "imgUrl": "https://firebasestorage.googleapis.com/v0/b/academic-script-312305.appspot.com/o/IMG20220831142931.jpg?alt=media&token=35d1e662-7bf9-4352-a2e0-b8cfdae35db9"
    },
    {
      "geometry": {
        "location": {
          "lat": 13.183098530836642,
          "lng": 74.93425122640498
        },
        "viewport": {
          "northeast": {
            "lat": 37.7404190302915,
            "lng": -122.4159020697085
          },
          "southwest": {
            "lat": 37.7377210697085,
            "lng": -122.4186000302915
          }
        }
      },
      "name": "Power Electronics Lab",
      "phone": 0,
      "note": "3",
      "inout": "in",
      "cat": "lab",
      "imgUrl": "https://firebasestorage.googleapis.com/v0/b/academic-script-312305.appspot.com/o/IMG20220831143106.jpg?alt=media&token=3b09145f-4672-4177-aba6-b058ca06aed1"
    },
    {
      "geometry": {
        "location": {
          "lat": 13.183098530836642,
          "lng": 74.93425122640498
        },
        "viewport": {
          "northeast": {
            "lat": 37.7404190302915,
            "lng": -122.4159020697085
          },
          "southwest": {
            "lat": 37.7377210697085,
            "lng": -122.4186000302915
          }
        }
      },
      "name": "Communication and Microwave Lab",
      "phone": 0,
      "note": "3",
      "inout": "in",
      "cat": "lab",
      "imgUrl": "https://firebasestorage.googleapis.com/v0/b/academic-script-312305.appspot.com/o/IMG20220831143145.jpg?alt=media&token=eab0ae5f-5b8d-4511-9809-1dd8c4a440af"
    },
    {
      "geometry": {
        "location": {
          "lat": 13.183098530836642,
          "lng": 74.93425122640498
        },
        "viewport": {
          "northeast": {
            "lat": 37.7404190302915,
            "lng": -122.4159020697085
          },
          "southwest": {
            "lat": 37.7377210697085,
            "lng": -122.4186000302915
          }
        }
      },
      "name": "Microprocessor/HDL Lab",
      "phone": 0,
      "note": "3",
      "inout": "in",
      "cat": "lab",
      "imgUrl": "https://firebasestorage.googleapis.com/v0/b/academic-script-312305.appspot.com/o/IMG20220831143221.jpg?alt=media&token=eded50a9-ce68-471c-8b82-db9ca50d9024"
    },
    {
      "geometry": {
        "location": {
          "lat": 13.183098530836642,
          "lng": 74.93425122640498
        },
        "viewport": {
          "northeast": {
            "lat": 37.7404190302915,
            "lng": -122.4159020697085
          },
          "southwest": {
            "lat": 37.7377210697085,
            "lng": -122.4186000302915
          }
        }
      },
      "name": "Project Lab 1",
      "phone": 0,
      "note": "",
      "inout": "in",
      "cat": "lab",
      "imgUrl": "https://firebasestorage.googleapis.com/v0/b/academic-script-312305.appspot.com/o/IMG20220831143233.jpg?alt=media&token=2b0bdc7e-0699-444f-92e8-d6c58d9fd821"
    },
    {
      "geometry": {
        "location": {
          "lat": 13.183098530836642,
          "lng": 74.93425122640498
        },
        "viewport": {
          "northeast": {
            "lat": 37.7404190302915,
            "lng": -122.4159020697085
          },
          "southwest": {
            "lat": 37.7377210697085,
            "lng": -122.4186000302915
          }
        }
      },
      "name": "Digital Signal Processing Lab",
      "phone": 0,
      "note": "3",
      "inout": "in",
      "cat": "lab",
      "imgUrl": "https://firebasestorage.googleapis.com/v0/b/academic-script-312305.appspot.com/o/IMG20220831143255.jpg?alt=media&token=d664dc75-a78d-4c88-9fe1-8e59eec5bebc"
    },
    {
      "geometry": {
        "location": {
          "lat": 13.182585113501121,
          "lng": 74.93480614794069
        },
        "viewport": {
          "northeast": {
            "lat": 37.7404190302915,
            "lng": -122.4159020697085
          },
          "southwest": {
            "lat": 37.7377210697085,
            "lng": -122.4186000302915
          }
        }
      },
      "name": "DSA Lab",
      "phone": 0,
      "note": "",
      "inout": "in",
      "cat": "lab",
      "imgUrl": "https://firebasestorage.googleapis.com/v0/b/academic-script-312305.appspot.com/o/IMG20220831145030.jpg?alt=media&token=3b2f80da-4cef-42bd-b87d-fc7f986251a4"
    },
    {
      "geometry": {
        "location": {
          "lat": 13.182585113501121,
          "lng": 74.93480614794069
        },
        "viewport": {
          "northeast": {
            "lat": 37.7404190302915,
            "lng": -122.4159020697085
          },
          "southwest": {
            "lat": 37.7377210697085,
            "lng": -122.4186000302915
          }
        }
      },
      "name": "Network Security Lab",
      "phone": 0,
      "note": "",
      "inout": "in",
      "cat": "lab",
      "imgUrl": "https://firebasestorage.googleapis.com/v0/b/academic-script-312305.appspot.com/o/IMG20220831145047.jpg?alt=media&token=a6239c9f-5f68-48df-84a7-3b051e6fe847"
    },
    {
      "geometry": {
        "location": {
          "lat": 13.182585113501121,
          "lng": 74.93480614794069
        },
        "viewport": {
          "northeast": {
            "lat": 37.7404190302915,
            "lng": -122.4159020697085
          },
          "southwest": {
            "lat": 37.7377210697085,
            "lng": -122.4186000302915
          }
        }
      },
      "name": "Web/Unix Programming Lab",
      "phone": 0,
      "note": "",
      "inout": "in",
      "cat": "lab",
      "imgUrl": "https://firebasestorage.googleapis.com/v0/b/academic-script-312305.appspot.com/o/IMG20220831145055.jpg?alt=media&token=960c7f7b-d19c-49c3-a07d-2fff49408ced"
    },
    {
      "geometry": {
        "location": {
          "lat": 13.182585113501121,
          "lng": 74.93480614794069
        },
        "viewport": {
          "northeast": {
            "lat": 37.7404190302915,
            "lng": -122.4159020697085
          },
          "southwest": {
            "lat": 37.7377210697085,
            "lng": -122.4186000302915
          }
        }
      },
      "name": "FAB Lab",
      "phone": 0,
      "note": "",
      "inout": "in",
      "cat": "lab",
      "imgUrl": "https://firebasestorage.googleapis.com/v0/b/academic-script-312305.appspot.com/o/IMG20220831145219.jpg?alt=media&token=197bca43-10b7-4c28-8c38-4c0246836000"
    },
    {
      "geometry": {
        "location": {
          "lat": 13.183322933777333,
          "lng": 74.93360736294888
        },
        "viewport": {
          "northeast": {
            "lat": 37.7404190302915,
            "lng": -122.4159020697085
          },
          "southwest": {
            "lat": 37.7377210697085,
            "lng": -122.4186000302915
          }
        }
      },
      "name": "MCA Computer Lab-4",
      "phone": 0,
      "note": "",
      "inout": "in",
      "cat": "lab",
      "imgUrl": "https://firebasestorage.googleapis.com/v0/b/academic-script-312305.appspot.com/o/IMG20220831143427.jpg?alt=media&token=9ee92dc3-a98c-4e4c-b96c-9d868ebbd033"
    },
    {
      "geometry": {
        "location": {
          "lat": 13.183322933777333,
          "lng": 74.93360736294888
        },
        "viewport": {
          "northeast": {
            "lat": 37.7404190302915,
            "lng": -122.4159020697085
          },
          "southwest": {
            "lat": 37.7377210697085,
            "lng": -122.4186000302915
          }
        }
      },
      "name": "MCA Computer Lab-1",
      "phone": 0,
      "note": "",
      "inout": "in",
      "cat": "lab",
      "imgUrl": "https://firebasestorage.googleapis.com/v0/b/academic-script-312305.appspot.com/o/IMG20220831143432.jpg?alt=media&token=4add5794-1706-4a14-b205-05058ac1fad7"
    },
    {
      "geometry": {
        "location": {
          "lat": 13.183767448496278,
          "lng": 74.9333987216308
        },
        "viewport": {
          "northeast": {
            "lat": 37.7404190302915,
            "lng": -122.4159020697085
          },
          "southwest": {
            "lat": 37.7377210697085,
            "lng": -122.4186000302915
          }
        }
      },
      "name": "Canara Bank",
      "phone": 0,
      "note": "",
      "inout": "in",
      "cat": "other",
      "imgUrl": "https://firebasestorage.googleapis.com/v0/b/academic-script-312305.appspot.com/o/IMG20220831151644.jpg?alt=media&token=05a964f2-1a87-4a88-b174-bffad1339b77"
    },
    {
      "geometry": {
        "location": {
          "lat": 13.183642454666035,
          "lng": 74.93318061814145
        },
        "viewport": {
          "northeast": {
            "lat": 37.7404190302915,
            "lng": -122.4159020697085
          },
          "southwest": {
            "lat": 37.7377210697085,
            "lng": -122.4186000302915
          }
        }
      },
      "name": "Research and Innovation Centre",
      "phone": 0,
      "note": "",
      "inout": "in",
      "cat": "other",
      "imgUrl": "https://firebasestorage.googleapis.com/v0/b/academic-script-312305.appspot.com/o/IMG20220831151509.jpg?alt=media&token=766f9c0d-cf3b-4a62-b656-2b75f284719f"
    },
    {
      "geometry": {
        "location": {
          "lat": 13.18224441113234,
          "lng": 74.934305259463
        },
        "viewport": {
          "northeast": {
            "lat": 37.7404190302915,
            "lng": -122.4159020697085
          },
          "southwest": {
            "lat": 37.7377210697085,
            "lng": -122.4186000302915
          }
        }
      },
      "name": "Resident Engineer's Office",
      "phone": 0,
      "note": "",
      "inout": "in",
      "cat": "other",
      "imgUrl": "https://firebasestorage.googleapis.com/v0/b/academic-script-312305.appspot.com/o/IMG20220831145920.jpg?alt=media&token=ca379039-8f17-474c-a280-b63295c3f493"
    },
    {
      "geometry": {
        "location": {
          "lat": 13.183517145647352,
          "lng": 74.93310321980734
        },
        "viewport": {
          "northeast": {
            "lat": 37.7404190302915,
            "lng": -122.4159020697085
          },
          "southwest": {
            "lat": 37.7377210697085,
            "lng": -122.4186000302915
          }
        }
      },
      "name": "Post Office",
      "phone": 0,
      "note": "",
      "inout": "in",
      "cat": "other",
      "imgUrl": "https://firebasestorage.googleapis.com/v0/b/academic-script-312305.appspot.com/o/IMG20220831151413.jpg?alt=media&token=ab0a993a-2df6-4775-b68b-f197f85f64ea"
    },
    {
      "geometry": {
        "location": {
          "lat": 13.182824231662535,
          "lng": 74.93377940768808
        },
        "viewport": {
          "northeast": {
            "lat": 37.7404190302915,
            "lng": -122.4159020697085
          },
          "southwest": {
            "lat": 37.7377210697085,
            "lng": -122.4186000302915
          }
        }
      },
      "name": "SAC",
      "phone": 0,
      "note": "",
      "inout": "in",
      "cat": "other",
      "imgUrl": "https://firebasestorage.googleapis.com/v0/b/academic-script-312305.appspot.com/o/IMG20220831150103.jpg?alt=media&token=ccec9d20-cf7a-494f-bc06-bea557351d6b"
    },
    {
      "geometry": {
        "location": {
          "lat": 13.183322933777333,
          "lng": 74.93360736294888
        },
        "viewport": {
          "northeast": {
            "lat": 37.7404190302915,
            "lng": -122.4159020697085
          },
          "southwest": {
            "lat": 37.7377210697085,
            "lng": -122.4186000302915
          }
        }
      },
      "name": "CFSD",
      "phone": 0,
      "note": "",
      "inout": "in",
      "cat": "other",
      "imgUrl": "https://firebasestorage.googleapis.com/v0/b/academic-script-312305.appspot.com/o/IMG20220831150254.jpg?alt=media&token=56c1e1e6-ee2b-4665-9be1-1e4b498e7090"
    },
    {
      "geometry": {
        "location": {
          "lat": 13.182565880410381,
          "lng": 74.93491849229366
        },
        "viewport": {
          "northeast": {
            "lat": 37.7404190302915,
            "lng": -122.4159020697085
          },
          "southwest": {
            "lat": 37.7377210697085,
            "lng": -122.4186000302915
          }
        }
      },
      "name": "NAIN",
      "phone": 0,
      "note": "",
      "inout": "in",
      "cat": "other",
      "imgUrl": "https://firebasestorage.googleapis.com/v0/b/academic-script-312305.appspot.com/o/IMG20220831144907.jpg?alt=media&token=efd5ec2a-04fd-418d-81e1-867ec116dc03"
    },
    {
      "geometry": {
        "location": {
          "lat": 13.18251887289634,
          "lng": 74.9347005628287
        },
        "viewport": {
          "northeast": {
            "lat": 37.7404190302915,
            "lng": -122.4159020697085
          },
          "southwest": {
            "lat": 37.7377210697085,
            "lng": -122.4186000302915
          }
        }
      },
      "name": "Entrepreneurship Development Cell",
      "phone": 0,
      "note": "",
      "inout": "in",
      "cat": "other",
      "imgUrl": "https://firebasestorage.googleapis.com/v0/b/academic-script-312305.appspot.com/o/IMG20220831144932.jpg?alt=media&token=119a66ea-167a-48e4-99c4-19a6097472a1"
    },
    {
      "geometry": {
        "location": {
          "lat": 13.182496882119352,
          "lng": 74.9347749109605
        },
        "viewport": {
          "northeast": {
            "lat": 37.7404190302915,
            "lng": -122.4159020697085
          },
          "southwest": {
            "lat": 37.7377210697085,
            "lng": -122.4186000302915
          }
        }
      },
      "name": "Atal Incubation Centre",
      "phone": 0,
      "note": "",
      "inout": "in",
      "cat": "other",
      "imgUrl": "https://firebasestorage.googleapis.com/v0/b/academic-script-312305.appspot.com/o/IMG20220831145302.jpg?alt=media&token=8c781389-e768-4421-9f46-683132369317"
    },
    {
      "geometry": {
        "location": {
          "lat": 13.183322933777333,
          "lng": 74.93360736294888
        },
        "viewport": {
          "northeast": {
            "lat": 37.7404190302915,
            "lng": -122.4159020697085
          },
          "southwest": {
            "lat": 37.7377210697085,
            "lng": -122.4186000302915
          }
        }
      },
      "name": "Xerox 1",
      "phone": 0,
      "note": "",
      "inout": "in",
      "cat": "print",
      "imgUrl": ""
    },
    {
      "geometry": {
        "location": {
          "lat": 13.182829606572119,
          "lng": 74.93326837412786
        },
        "viewport": {
          "northeast": {
            "lat": 37.7404190302915,
            "lng": -122.4159020697085
          },
          "southwest": {
            "lat": 37.7377210697085,
            "lng": -122.4186000302915
          }
        }
      },
      "name": "Xerox 2",
      "phone": 0,
      "note": "ground floor",
      "inout": "in",
      "cat": "print",
      "imgUrl": ""
    },
    {
      "geometry": {
        "location": {
          "lat": 13.183406595007204,
          "lng": 74.93656234357086
        },
        "viewport": {
          "northeast": {
            "lat": 37.7404190302915,
            "lng": -122.4159020697085
          },
          "southwest": {
            "lat": 37.7377210697085,
            "lng": -122.4186000302915
          }
        }
      },
      "name": "Ground Zero cyber",
      "phone": 0,
      "note": "print/xerox/gznitte@gmail.com",
      "inout": "out",
      "cat": "print",
      "imgUrl": ""
    },
    {
      "geometry": {
        "location": {
          "lat": 13.181550122057747,
          "lng": 74.93797108588376
        },
        "viewport": {
          "northeast": {
            "lat": 37.7404190302915,
            "lng": -122.4159020697085
          },
          "southwest": {
            "lat": 37.7377210697085,
            "lng": -122.4186000302915
          }
        }
      },
      "name": "Sanmathi garden",
      "phone": 0,
      "note": "",
      "inout": "out",
      "cat": "hangout",
      "imgUrl": ""
    },
    {
      "geometry": {
        "location": {
          "lat": 13.183104689648923,
          "lng": 74.93459624959885
        },
        "viewport": {
          "northeast": {
            "lat": 37.7404190302915,
            "lng": -122.4159020697085
          },
          "southwest": {
            "lat": 37.7377210697085,
            "lng": -122.4186000302915
          }
        }
      },
      "name": "Clinic",
      "phone": 0,
      "note": "ground floor",
      "inout": "in",
      "cat": "other",
      "imgUrl": ""
    },
    {
      "geometry": {
        "location": {
          "lat": 13.180199518708614,
          "lng": 74.93493759341429
        },
        "viewport": {
          "northeast": {
            "lat": 37.7404190302915,
            "lng": -122.4159020697085
          },
          "southwest": {
            "lat": 37.7377210697085,
            "lng": -122.4186000302915
          }
        }
      },
      "name": "BC Alva Sports Complex",
      "phone": 0,
      "note": "",
      "inout": "out",
      "cat": "sport",
      "imgUrl": "https://firebasestorage.googleapis.com/v0/b/academic-script-312305.appspot.com/o/bcalva.jpg?alt=media&token=4394e978-805e-4f62-bfce-c5e5c1be3a68"
    },
    {
      "geometry": {
        "location": {
          "lat": 13.182551776507761,
          "lng": 74.93871592257398
        },
        "viewport": {
          "northeast": {
            "lat": 37.7404190302915,
            "lng": -122.4159020697085
          },
          "southwest": {
            "lat": 37.7377210697085,
            "lng": -122.4186000302915
          }
        }
      },
      "name": "BC Alva Memorial Indoor Stadium",
      "phone": 0,
      "note": "",
      "inout": "out",
      "cat": "sport",
      "imgUrl": ""
    },
    {
      "geometry": {
        "location": {
          "lat": 13.183714246391565,
          "lng": 74.93881468320654
        },
        "viewport": {
          "northeast": {
            "lat": 37.7404190302915,
            "lng": -122.4159020697085
          },
          "southwest": {
            "lat": 37.7377210697085,
            "lng": -122.4186000302915
          }
        }
      },
      "name": "NET Gents Main Hostel- Block 3",
      "phone": 0,
      "note": "",
      "inout": "out",
      "cat": "hostel",
      "imgUrl": ""
    },
    {
      "geometry": {
        "location": {
          "lat": 13.182788047013993,
          "lng": 74.9366512205628
        },
        "viewport": {
          "northeast": {
            "lat": 37.7404190302915,
            "lng": -122.4159020697085
          },
          "southwest": {
            "lat": 37.7377210697085,
            "lng": -122.4186000302915
          }
        }
      },
      "name": "NET PG Girls Hostel",
      "phone": 0,
      "note": "",
      "inout": "out",
      "cat": "hostel",
      "imgUrl": ""
    },
    {
      "geometry": {
        "location": {
          "lat": 13.184724712725382,
          "lng": 74.93614120701079
        },
        "viewport": {
          "northeast": {
            "lat": 37.7404190302915,
            "lng": -122.4159020697085
          },
          "southwest": {
            "lat": 37.7377210697085,
            "lng": -122.4186000302915
          }
        }
      },
      "name": "Sri Durga General Store",
      "phone": 0,
      "note": "",
      "inout": "out",
      "cat": "shop",
      "imgUrl": "https://firebasestorage.googleapis.com/v0/b/academic-script-312305.appspot.com/o/rohan.jpg?alt=media&token=9c1479df-2bc4-403b-a210-4620bea37b32"
    },
    {
      "geometry": {
        "location": {
          "lat": 13.183196061378533,
          "lng": 74.936575553385
        },
        "viewport": {
          "northeast": {
            "lat": 37.7404190302915,
            "lng": -122.4159020697085
          },
          "southwest": {
            "lat": 37.7377210697085,
            "lng": -122.4186000302915
          }
        }
      },
      "name": "Shabari store",
      "phone": 0,
      "note": "",
      "inout": "NA",
      "cat": "shop",
      "imgUrl": ""
    },
    {
      "geometry": {
        "location": {
          "lat": 13.182466607709129,
          "lng": 74.93461929032385
        },
        "viewport": {
          "northeast": {
            "lat": 37.7404190302915,
            "lng": -122.4159020697085
          },
          "southwest": {
            "lat": 37.7377210697085,
            "lng": -122.4186000302915
          }
        }
      },
      "name": "Nitte Co-op store",
      "phone": 0,
      "note": "",
      "inout": "in",
      "cat": "shop",
      "imgUrl": "https://firebasestorage.googleapis.com/v0/b/academic-script-312305.appspot.com/o/IMG20220831144414.jpg?alt=media&token=27f11a80-456d-4fed-a169-a13bf9c67934"
    },
    {
      "geometry": {
        "location": {
          "lat": 13.181731077863905,
          "lng": 74.93419965391348
        },
        "viewport": {
          "northeast": {
            "lat": 37.7404190302915,
            "lng": -122.4159020697085
          },
          "southwest": {
            "lat": 37.7377210697085,
            "lng": -122.4186000302915
          }
        }
      },
      "name": "Rohan's canteen & shop",
      "phone": 0,
      "note": "",
      "inout": "out",
      "cat": "shop",
      "imgUrl": "https://firebasestorage.googleapis.com/v0/b/academic-script-312305.appspot.com/o/rohan.jpg?alt=media&token=9c1479df-2bc4-403b-a210-4620bea37b32"
    },
    {
      "geometry": {
        "location": {
          "lat": 13.184593786589378,
          "lng": 74.93622441567683
        },
        "viewport": {
          "northeast": {
            "lat": 37.7404190302915,
            "lng": -122.4159020697085
          },
          "southwest": {
            "lat": 37.7377210697085,
            "lng": -122.4186000302915
          }
        }
      },
      "name": "Hotel Sri Durga Prasad",
      "phone": 0,
      "note": "",
      "inout": "out",
      "cat": "food",
      "imgUrl": ""
    },
    {
      "geometry": {
        "location": {
          "lat": 13.184578993620796,
          "lng": 74.93622614207975
        },
        "viewport": {
          "northeast": {
            "lat": 37.7404190302915,
            "lng": -122.4159020697085
          },
          "southwest": {
            "lat": 37.7377210697085,
            "lng": -122.4186000302915
          }
        }
      },
      "name": "Pavi Digital Studio",
      "phone": 0,
      "note": "",
      "inout": "out",
      "cat": "other",
      "imgUrl": ""
    },
    {
      "geometry": {
        "location": {
          "lat": 13.18453926888089,
          "lng": 74.93618789187542
        },
        "viewport": {
          "northeast": {
            "lat": 37.7404190302915,
            "lng": -122.4159020697085
          },
          "southwest": {
            "lat": 37.7377210697085,
            "lng": -122.4186000302915
          }
        }
      },
      "name": "Nitte fancy",
      "phone": 7349005978,
      "note": "",
      "inout": "out",
      "cat": "shop",
      "imgUrl": "https://firebasestorage.googleapis.com/v0/b/academic-script-312305.appspot.com/o/fancy.jpg?alt=media&token=0b6415ba-fdd7-42b7-80de-252401649936"
    },
    {
      "geometry": {
        "location": {
          "lat": 13.184542112984412,
          "lng": 74.93615653214229
        },
        "viewport": {
          "northeast": {
            "lat": 37.7404190302915,
            "lng": -122.4159020697085
          },
          "southwest": {
            "lat": 37.7377210697085,
            "lng": -122.4186000302915
          }
        }
      },
      "name": "Sri Durga Mens Parlour",
      "phone": 8970242433,
      "note": "Closed on Tuesdays",
      "inout": "out",
      "cat": "other",
      "imgUrl": "https://firebasestorage.googleapis.com/v0/b/academic-script-312305.appspot.com/o/durgasalon.jpg?alt=media&token=2d3f963b-2657-4f02-a88d-17f3fd23705d"
    },
    {
      "geometry": {
        "location": {
          "lat": 13.184536786084436,
          "lng": 74.93618789187542
        },
        "viewport": {
          "northeast": {
            "lat": 37.7404190302915,
            "lng": -122.4159020697085
          },
          "southwest": {
            "lat": 37.7377210697085,
            "lng": -122.4186000302915
          }
        }
      },
      "name": "Om Sai general store",
      "phone": 8904297612,
      "note": "",
      "inout": "out",
      "cat": "shop",
      "imgUrl": "https://firebasestorage.googleapis.com/v0/b/academic-script-312305.appspot.com/o/om%20sai.jpg?alt=media&token=fb303738-c7e3-4737-9633-2826fd5b2360"
    },
    {
      "geometry": {
        "location": {
          "lat": 13.184943156955994,
          "lng": 74.93610666223769
        },
        "viewport": {
          "northeast": {
            "lat": 37.7404190302915,
            "lng": -122.4159020697085
          },
          "southwest": {
            "lat": 37.7377210697085,
            "lng": -122.4186000302915
          }
        }
      },
      "name": "Malasa Footware",
      "phone": 9740536587,
      "note": "",
      "inout": "NA",
      "cat": "shop",
      "imgUrl": "https://firebasestorage.googleapis.com/v0/b/academic-script-312305.appspot.com/o/malasa.jpg?alt=media&token=c744ecb6-8a80-4f09-a1e2-35e53009c7cd"
    },
    {
      "geometry": {
        "location": {
          "lat": 13.185334502056019,
          "lng": 74.93690490204007
        },
        "viewport": {
          "northeast": {
            "lat": 37.7404190302915,
            "lng": -122.4159020697085
          },
          "southwest": {
            "lat": 37.7377210697085,
            "lng": -122.4186000302915
          }
        }
      },
      "name": "Hegde corner",
      "phone": 9449487548,
      "note": "",
      "inout": "out",
      "cat": "food",
      "imgUrl": "https://firebasestorage.googleapis.com/v0/b/academic-script-312305.appspot.com/o/hegde.jpg?alt=media&token=00f92fd1-e885-4c07-89f1-d218230f06f9"
    },
    {
      "geometry": {
        "location": {
          "lat": 13.185794555753183,
          "lng": 74.93892733754711
        },
        "viewport": {
          "northeast": {
            "lat": 37.7404190302915,
            "lng": -122.4159020697085
          },
          "southwest": {
            "lat": 37.7377210697085,
            "lng": -122.4186000302915
          }
        }
      },
      "name": "Shrajan store",
      "phone": 9844897804,
      "note": "",
      "inout": "out",
      "cat": "shop",
      "imgUrl": "https://firebasestorage.googleapis.com/v0/b/academic-script-312305.appspot.com/o/shrajan.jpg?alt=media&token=72f61a52-3835-4056-8d6f-3c1169dcef45"
    },
    {
      "geometry": {
        "location": {
          "lat": 13.185893936033745,
          "lng": 74.93889353555299
        },
        "viewport": {
          "northeast": {
            "lat": 37.7404190302915,
            "lng": -122.4159020697085
          },
          "southwest": {
            "lat": 37.7377210697085,
            "lng": -122.4186000302915
          }
        }
      },
      "name": "Janani hairdresser",
      "phone": 8943560193,
      "note": "",
      "inout": "out",
      "cat": "shop",
      "imgUrl": "https://firebasestorage.googleapis.com/v0/b/academic-script-312305.appspot.com/o/janani.jpg?alt=media&token=545f9e65-d5b3-448a-91af-5d9b86ab7ac8"
    },
    {
      "geometry": {
        "location": {
          "lat": 13.18583858897392,
          "lng": 74.9390433509852
        },
        "viewport": {
          "northeast": {
            "lat": 37.7404190302915,
            "lng": -122.4159020697085
          },
          "southwest": {
            "lat": 37.7377210697085,
            "lng": -122.4186000302915
          }
        }
      },
      "name": "Porlu collections",
      "phone": 0,
      "note": "",
      "inout": "out",
      "cat": "shop",
      "imgUrl": "https://firebasestorage.googleapis.com/v0/b/academic-script-312305.appspot.com/o/porlu.jpg?alt=media&token=7625a2ea-b1ba-49dd-b301-1d251fe53054"
    },
    {
      "geometry": {
        "location": {
          "lat": 13.18585199038735,
          "lng": 74.93916919607061
        },
        "viewport": {
          "northeast": {
            "lat": 37.7404190302915,
            "lng": -122.4159020697085
          },
          "southwest": {
            "lat": 37.7377210697085,
            "lng": -122.4186000302915
          }
        }
      },
      "name": "Kamath Store",
      "phone": 9686967079,
      "note": "",
      "inout": "NA",
      "cat": "shop",
      "imgUrl": "https://firebasestorage.googleapis.com/v0/b/academic-script-312305.appspot.com/o/kamath.jpg?alt=media&token=0c1a332d-5f76-4df0-af99-8f91c7274c41"
    },
    {
      "geometry": {
        "location": {
          "lat": 13.185821448835814,
          "lng": 74.93935135320416
        },
        "viewport": {
          "northeast": {
            "lat": 37.7404190302915,
            "lng": -122.4159020697085
          },
          "southwest": {
            "lat": 37.7377210697085,
            "lng": -122.4186000302915
          }
        }
      },
      "name": "NVS stores",
      "phone": 9980437707,
      "note": "",
      "inout": "out",
      "cat": "shop",
      "imgUrl": "https://firebasestorage.googleapis.com/v0/b/academic-script-312305.appspot.com/o/NVS.jpg?alt=media&token=dde9dc37-16b7-4f6c-90ef-ebc162577e32"
    },
    {
      "geometry": {
        "location": {
          "lat": 13.18544383739037,
          "lng": 74.93847367097891
        },
        "viewport": {
          "northeast": {
            "lat": 37.7404190302915,
            "lng": -122.4159020697085
          },
          "southwest": {
            "lat": 37.7377210697085,
            "lng": -122.4186000302915
          }
        }
      },
      "name": "Radha Krishna hotel",
      "phone": 9845978044,
      "note": "",
      "inout": "out",
      "cat": "food",
      "imgUrl": "https://res.cloudinary.com/do1jebbgp/image/upload/v1661792466/NMAMIT-Map/radhakr_e4ouxu.jpg"
    },
    {
      "geometry": {
        "location": {
          "lat": 13.185391607433225,
          "lng": 74.93839320470528
        },
        "viewport": {
          "northeast": {
            "lat": 37.7404190302915,
            "lng": -122.4159020697085
          },
          "southwest": {
            "lat": 37.7377210697085,
            "lng": -122.4186000302915
          }
        }
      },
      "name": "Menz Addict",
      "phone": 7353317316,
      "note": "clothes n shit",
      "inout": "out",
      "cat": "shop",
      "imgUrl": "https://firebasestorage.googleapis.com/v0/b/academic-script-312305.appspot.com/o/menzaddict.jpg?alt=media&token=13ec476d-237f-49a0-8636-d84a14abecd7"
    },
    {
      "geometry": {
        "location": {
          "lat": 13.185454283380471,
          "lng": 74.93827786971306
        },
        "viewport": {
          "northeast": {
            "lat": 37.7404190302915,
            "lng": -122.4159020697085
          },
          "southwest": {
            "lat": 37.7377210697085,
            "lng": -122.4186000302915
          }
        }
      },
      "name": "Pingara hair dressers",
      "phone": 9611080597,
      "note": "",
      "inout": "out",
      "cat": "other",
      "imgUrl": "https://firebasestorage.googleapis.com/v0/b/academic-script-312305.appspot.com/o/pingara.jpg?alt=media&token=e7b681cd-3f35-41ce-bf6f-0787c6dbd83c"
    },
    {
      "geometry": {
        "location": {
          "lat": 13.185402053425552,
          "lng": 74.93820545006679
        },
        "viewport": {
          "northeast": {
            "lat": 37.7404190302915,
            "lng": -122.4159020697085
          },
          "southwest": {
            "lat": 37.7377210697085,
            "lng": -122.4186000302915
          }
        }
      },
      "name": "Kateeleshwari food corner",
      "phone": 9164592601,
      "note": "",
      "inout": "out",
      "cat": "food",
      "imgUrl": "https://firebasestorage.googleapis.com/v0/b/academic-script-312305.appspot.com/o/kateel.jpg?alt=media&token=64cb03a1-4536-4bd7-a6e6-8f7f32b0446a"
    },
    {
      "geometry": {
        "location": {
          "lat": 13.185409887919493,
          "lng": 74.937966733455
        },
        "viewport": {
          "northeast": {
            "lat": 37.7404190302915,
            "lng": -122.4159020697085
          },
          "southwest": {
            "lat": 37.7377210697085,
            "lng": -122.4186000302915
          }
        }
      },
      "name": "Kateeleshwari fruits",
      "phone": 8722950038,
      "note": "",
      "inout": "NA",
      "cat": "shop",
      "imgUrl": "https://firebasestorage.googleapis.com/v0/b/academic-script-312305.appspot.com/o/kateel.jpg?alt=media&token=64cb03a1-4536-4bd7-a6e6-8f7f32b0446a"
    },
    {
      "geometry": {
        "location": {
          "lat": 13.186801172187524,
          "lng": 74.9386888551022
        },
        "viewport": {
          "northeast": {
            "lat": 37.7404190302915,
            "lng": -122.4159020697085
          },
          "southwest": {
            "lat": 37.7377210697085,
            "lng": -122.4186000302915
          }
        }
      },
      "name": "Government hospital",
      "phone": 0,
      "note": "",
      "inout": "out",
      "cat": "med",
      "imgUrl": "https://firebasestorage.googleapis.com/v0/b/academic-script-312305.appspot.com/o/govthosp.jpg?alt=media&token=c91a3d9a-26be-4a41-b668-a4a1afb64544"
    },
    {
      "geometry": {
        "location": {
          "lat": 13.184081337280166,
          "lng": 74.93491808563654
        },
        "viewport": {
          "northeast": {
            "lat": 37.7404190302915,
            "lng": -122.4159020697085
          },
          "southwest": {
            "lat": 37.7377210697085,
            "lng": -122.4186000302915
          }
        }
      },
      "name": "Bus stop",
      "phone": 0,
      "note": "",
      "inout": "out",
      "cat": "stop",
      "imgUrl": ""
    },
    {
      "geometry": {
        "location": {
          "lat": 13.184268210881894,
          "lng": 74.93517955900226
        },
        "viewport": {
          "northeast": {
            "lat": 37.7404190302915,
            "lng": -122.4159020697085
          },
          "southwest": {
            "lat": 37.7377210697085,
            "lng": -122.4186000302915
          }
        }
      },
      "name": "Auto stand",
      "phone": 0,
      "note": "",
      "inout": "out",
      "cat": "stop",
      "imgUrl": ""
    },
    {
      "geometry": {
        "location": {
          "lat": 13.18454403362388,
          "lng": 74.93623824731664
        },
        "viewport": {
          "northeast": {
            "lat": 37.7404190302915,
            "lng": -122.4159020697085
          },
          "southwest": {
            "lat": 37.7377210697085,
            "lng": -122.4186000302915
          }
        }
      },
      "name": "Iyengar bakery",
      "phone": 0,
      "note": "",
      "inout": "NA",
      "cat": "shop",
      "imgUrl": "https://firebasestorage.googleapis.com/v0/b/academic-script-312305.appspot.com/o/iyengar.jpg?alt=media&token=2dbb23c0-0268-4158-b86b-a39fde5e888e"
    },
    {
      "geometry": {
        "location": {
          "lat": 13.184992196359342,
          "lng": 74.93015458050589
        },
        "viewport": {
          "northeast": {
            "lat": 37.7404190302915,
            "lng": -122.4159020697085
          },
          "southwest": {
            "lat": 37.7377210697085,
            "lng": -122.4186000302915
          }
        }
      },
      "name": "Crystal Clean",
      "phone": 0,
      "note": "",
      "inout": "out",
      "cat": "vehicle",
      "imgUrl": "https://firebasestorage.googleapis.com/v0/b/academic-script-312305.appspot.com/o/IMG20220831152339.jpg?alt=media&token=57958d91-8c6b-4c87-8db3-c6451f225033"
    },
    {
      "geometry": {
        "location": {
          "lat": 13.185341582758536,
          "lng": 74.93940252615275
        },
        "viewport": {
          "northeast": {
            "lat": 37.7404190302915,
            "lng": -122.4159020697085
          },
          "southwest": {
            "lat": 37.7377210697085,
            "lng": -122.4186000302915
          }
        }
      },
      "name": "Nitte Laxmi Fuels",
      "phone": 0,
      "note": "",
      "inout": "out",
      "cat": "vehicle",
      "imgUrl": ""
    },
    {
      "geometry": {
        "location": {
          "lat": 13.18514886627743,
          "lng": 74.94646191872299
        },
        "viewport": {
          "northeast": {
            "lat": 37.7404190302915,
            "lng": -122.4159020697085
          },
          "southwest": {
            "lat": 37.7377210697085,
            "lng": -122.4186000302915
          }
        }
      },
      "name": "Om Sai Ram Auto Works",
      "phone": 0,
      "note": "",
      "inout": "out",
      "cat": "vehicle",
      "imgUrl": ""
    },
    {
      "geometry": {
        "location": {
          "lat": 13.180676199036832,
          "lng": 74.93588620912763
        },
        "viewport": {
          "northeast": {
            "lat": 13.180790219864152,
            "lng": 74.9361773676821
          },
          "southwest": {
            "lat": 37.7377210697085,
            "lng": -122.4186000302915
          }
        }
      },
      "name": "Nitte Boys PG",
      "phone": 0,
      "note": "",
      "inout": "out",
      "cat": "hostel",
      "imgUrl": "https://firebasestorage.googleapis.com/v0/b/academic-script-312305.appspot.com/o/hosBOYSPG.jpg?alt=media&token=99ccb0c7-d590-4f38-a6d6-0186fdcead92"
    },
    {
      "geometry": {
        "location": {
          "lat": 13.185218233329808,
          "lng": 74.9397977682659
        },
        "viewport": {
          "northeast": {
            "lat": 37.7404190302915,
            "lng": -122.4159020697085
          },
          "southwest": {
            "lat": 37.7377210697085,
            "lng": -122.4186000302915
          }
        }
      },
      "name": "Ratna's",
      "phone": 0,
      "note": "",
      "inout": "out",
      "cat": "food",
      "imgUrl": "https://firebasestorage.googleapis.com/v0/b/academic-script-312305.appspot.com/o/ratnas.jpg?alt=media&token=355a3bcd-0634-4f43-a787-610039ee5bdb"
    },
    {
      "geometry": {
        "location": {
          "lat": 0,
          "lng": 0
        },
        "viewport": {
          "northeast": {
            "lat": 37.7404190302915,
            "lng": -122.4159020697085
          },
          "southwest": {
            "lat": 37.7377210697085,
            "lng": -122.4186000302915
          }
        }
      },
      "name": "Nitte Co-op store",
      "phone": 0,
      "note": "",
      "inout": "in",
      "cat": "shop",
      "imgUrl": ""
    },
    {
      "geometry": {
        "location": {
          "lat": 0,
          "lng": 0
        },
        "viewport": {
          "northeast": {
            "lat": 37.7404190302915,
            "lng": -122.4159020697085
          },
          "southwest": {
            "lat": 37.7377210697085,
            "lng": -122.4186000302915
          }
        }
      },
      "name": "Nitte Co-op store",
      "phone": 0,
      "note": "",
      "inout": "in",
      "cat": "shop",
      "imgUrl": ""
    }
  ]