[
    {
        "name":"Hotel Shetty's",
        "phone":0,
        "note":"",
        "inout":"out",
        "cat":"food",
        "imgUrl":"",
        "lat":13.1820038813,
        "lng":74.9354681253
    },
    {
        "name":"Sanmathi Cafe",
        "phone":0,
        "note":"",
        "inout":"out",
        "cat":"food",
        "imgUrl":"",
        "lat":13.1821980528,
        "lng":74.9379048159
    },
    {
        "name":"Shabari",
        "phone":0,
        "note":"",
        "inout":"out",
        "cat":"food",
        "imgUrl":"",
        "lat":13.1831792365,
        "lng":74.9366235127
    },
    {
        "name":"Harshitha",
        "phone":0,
        "note":"",
        "inout":"out",
        "cat":"food",
        "imgUrl":"",
        "lat":13.1835138979,
        "lng":74.9364896137
    },
    {
        "name":"Shisha Food Court",
        "phone":0,
        "note":"",
        "inout":"out",
        "cat":"food",
        "imgUrl":"https://firebasestorage.googleapis.com/v0/b/academic-script-312305.appspot.com/o/IMG20220831154314.jpg?alt=media&token=1d83e991-ef57-4100-ba19-7998329c9798",
        "lat":13.1842378485,
        "lng":74.9344297922
    },
    {
        "name":"Oven Fresh",
        "phone":0,
        "note":"",
        "inout":"out",
        "cat":"food",
        "imgUrl":"https://firebasestorage.googleapis.com/v0/b/academic-script-312305.appspot.com/o/IMG20220831154034.jpg?alt=media&token=85382676-0611-485d-a9b9-f6db9fe01925",
        "lat":13.1841074789,
        "lng":74.9331059869
    },
    {
        "name":"Kitchen Bells",
        "phone":0,
        "note":"",
        "inout":"in",
        "cat":"food",
        "imgUrl":"https://firebasestorage.googleapis.com/v0/b/academic-script-312305.appspot.com/o/IMG20220831150830.jpg?alt=media&token=8a118236-2ca9-40e6-9658-f1326417a421",
        "lat":13.1828424836,
        "lng":74.9333878222
    },
    {
        "name":"Maggi shop",
        "phone":0,
        "note":"",
        "inout":"in",
        "cat":"food",
        "imgUrl":"https://firebasestorage.googleapis.com/v0/b/academic-script-312305.appspot.com/o/IMG20220831144546.jpg?alt=media&token=09507c68-dc0d-44f1-9302-91e3f2b60ea7",
        "lat":13.1826784831,
        "lng":74.9351766007
    },
    {
        "name":"Raghanna's",
        "phone":0,
        "note":"",
        "inout":"in",
        "cat":"food",
        "imgUrl":"https://firebasestorage.googleapis.com/v0/b/academic-script-312305.appspot.com/o/IMG20220831150115.jpg?alt=media&token=4fcb2935-ad0a-4bae-ad1f-906214073572",
        "lat":13.1827702147,
        "lng":74.9337647483
    },
    {
        "name":"NMAMIT/Shri Durga Canteen",
        "phone":0,
        "note":"",
        "inout":"in",
        "cat":"food",
        "imgUrl":"https://firebasestorage.googleapis.com/v0/b/academic-script-312305.appspot.com/o/IMG20220831145941.jpg?alt=media&token=16acb972-e3cb-4336-acd4-ef60c677b1c6",
        "lat":13.1823166896,
        "lng":74.9340677418
    },
    {
        "name":"Suprabha",
        "phone":0,
        "note":"",
        "inout":"in",
        "cat":"food",
        "imgUrl":"https://firebasestorage.googleapis.com/v0/b/academic-script-312305.appspot.com/o/IMG20220831144347.jpg?alt=media&token=b3dbf03a-ca6f-4c73-8a69-bfe9ff32447a",
        "lat":13.1827154409,
        "lng":74.9345218224
    },
    {
        "name":"ATREYA",
        "phone":0,
        "note":"",
        "inout":"in",
        "cat":"block",
        "imgUrl":"https://firebasestorage.googleapis.com/v0/b/academic-script-312305.appspot.com/o/IMG20220831150033.jpg?alt=media&token=72d651e2-1498-471a-a8a2-6598642a964c",
        "lat":13.1826715534,
        "lng":74.934125634
    },
    {
        "name":"ATAL",
        "phone":0,
        "note":"",
        "inout":"in",
        "cat":"block",
        "imgUrl":"https://firebasestorage.googleapis.com/v0/b/academic-script-312305.appspot.com/o/IMG20220831144535.jpg?alt=media&token=64ba8a91-4e0f-4428-952d-cadc16bdf81c",
        "lat":13.1825814686,
        "lng":74.9348349772
    },
    {
        "name":"CV Raman/CVR",
        "phone":0,
        "note":"First years'",
        "inout":"in",
        "cat":"block",
        "imgUrl":"",
        "lat":13.1829033425,
        "lng":74.9332706499
    },
    {
        "name":"SIR M VISVESVARAYA/VIS",
        "phone":0,
        "note":"CIVIL/EE",
        "inout":"in",
        "cat":"block",
        "imgUrl":"https://firebasestorage.googleapis.com/v0/b/academic-script-312305.appspot.com/o/blcVIS.jpg?alt=media&token=d49e4b16-331d-4401-9ad1-cf9b2957cca3",
        "lat":13.1824691117,
        "lng":74.9335876822
    },
    {
        "name":"S RAMANUJAN/RAM",
        "phone":0,
        "note":"MECH/EC",
        "inout":"in",
        "cat":"block",
        "imgUrl":"https://firebasestorage.googleapis.com/v0/b/academic-script-312305.appspot.com/o/IMG20220831141739.jpg?alt=media&token=8aacfa95-2ea6-4eb9-84f9-75e94e3e8a05",
        "lat":13.1830109152,
        "lng":74.933942918
    },
    {
        "name":"APJ KALAM/APJ",
        "phone":0,
        "note":"CS/IS/BT",
        "inout":"in",
        "cat":"block",
        "imgUrl":"https://firebasestorage.googleapis.com/v0/b/academic-script-312305.appspot.com/o/IMG20220831141639.jpg?alt=media&token=408edcfa-8ca1-4e4b-92fc-cadce45faf05",
        "lat":13.1833178219,
        "lng":74.9336561878
    },
    {
        "name":"Shambhavi hall",
        "phone":0,
        "note":"",
        "inout":"in",
        "cat":"hall",
        "imgUrl":"https://firebasestorage.googleapis.com/v0/b/academic-script-312305.appspot.com/o/IMG20220831141949.jpg?alt=media&token=8adea179-2072-464b-8bc8-8bf3150917a9",
        "lat":13.1835123439,
        "lng":74.9335206758
    },
    {
        "name":"Phalguni",
        "phone":0,
        "note":"",
        "inout":"in",
        "cat":"hall",
        "imgUrl":"https://firebasestorage.googleapis.com/v0/b/academic-script-312305.appspot.com/o/IMG20220831142841.jpg?alt=media&token=249c48d6-33ca-4b6b-8567-910475b1e8e6",
        "lat":13.1830003432,
        "lng":74.9341418605
    },
    {
        "name":"Sowparnika",
        "phone":0,
        "note":"",
        "inout":"in",
        "cat":"hall",
        "imgUrl":"https://firebasestorage.googleapis.com/v0/b/academic-script-312305.appspot.com/o/IMG20220831142200.jpg?alt=media&token=73cbf431-d8ee-4e9b-a4eb-16f518e270f4",
        "lat":13.1830003432,
        "lng":74.9341418605
    },
    {
        "name":"Sambhram hall",
        "phone":0,
        "note":"",
        "inout":"in",
        "cat":"hall",
        "imgUrl":"https://firebasestorage.googleapis.com/v0/b/academic-script-312305.appspot.com/o/IMG20220831141949.jpg?alt=media&token=7c0a88a5-4e69-4282-9cc6-ead6ac11bb06",
        "lat":13.1830003432,
        "lng":74.9341418605
    },
    {
        "name":"Sadananda hall",
        "phone":0,
        "note":"",
        "inout":"in",
        "cat":"hall",
        "imgUrl":"https://firebasestorage.googleapis.com/v0/b/academic-script-312305.appspot.com/o/IMG20220831145655.jpg?alt=media&token=79c55b57-86a8-4f90-98aa-f0263fb43ccd",
        "lat":13.1827544607,
        "lng":74.9353168966
    },
    {
        "name":"MCA Seminar hall",
        "phone":0,
        "note":"",
        "inout":"in",
        "cat":"hall",
        "imgUrl":"https://firebasestorage.googleapis.com/v0/b/academic-script-312305.appspot.com/o/IMG20220831143821.jpg?alt=media&token=727a720b-5f5b-4198-a31a-039dd2d7b570",
        "lat":13.1830003432,
        "lng":74.9341418605
    },
    {
        "name":"Central library",
        "phone":0,
        "note":"1st floor, RAM",
        "inout":"in",
        "cat":"library",
        "imgUrl":"https://firebasestorage.googleapis.com/v0/b/academic-script-312305.appspot.com/o/IMG20220831142304.jpg?alt=media&token=10cbae22-c241-4b3b-991c-409d62576187",
        "lat":13.1830003432,
        "lng":74.9341418605
    },
    {
        "name":"Research Lab",
        "phone":0,
        "note":"",
        "inout":"in",
        "cat":"lab",
        "imgUrl":"https://firebasestorage.googleapis.com/v0/b/academic-script-312305.appspot.com/o/IMG20220831144659.jpg?alt=media&token=08b03d37-9517-48b7-9e6c-478a2a60d014",
        "lat":13.1833229338,
        "lng":74.9336073629
    },
    {
        "name":"Metallurgy Lab",
        "phone":0,
        "note":"",
        "inout":"in",
        "cat":"lab",
        "imgUrl":"https://firebasestorage.googleapis.com/v0/b/academic-script-312305.appspot.com/o/IMG20220831144726.jpg?alt=media&token=7aadb517-8a72-419e-a390-cf25e4d9c0b9",
        "lat":13.1825622651,
        "lng":74.9348144304
    },
    {
        "name":"Chemistry Lab",
        "phone":0,
        "note":"",
        "inout":"in",
        "cat":"lab",
        "imgUrl":"https://firebasestorage.googleapis.com/v0/b/academic-script-312305.appspot.com/o/IMG20220831142450.jpg?alt=media&token=a950970e-d350-421b-afe4-2e1f6ce6951d",
        "lat":13.1829883209,
        "lng":74.9338688551
    },
    {
        "name":"CAD/CAE/CFD Lab",
        "phone":0,
        "note":"",
        "inout":"in",
        "cat":"lab",
        "imgUrl":"https://firebasestorage.googleapis.com/v0/b/academic-script-312305.appspot.com/o/IMG20220831142646.jpg?alt=media&token=eaa3bc78-6929-4ff1-aec3-ece1ba3d82bd",
        "lat":13.1829708486,
        "lng":74.9339668636
    },
    {
        "name":"Physics Lab",
        "phone":0,
        "note":"",
        "inout":"in",
        "cat":"lab",
        "imgUrl":"https://firebasestorage.googleapis.com/v0/b/academic-script-312305.appspot.com/o/IMG20220831142435.jpg?alt=media&token=e0331a89-b9e7-48d9-a072-34900e9af8e8",
        "lat":13.1829883209,
        "lng":74.9338688551
    },
    {
        "name":"VLSI Lab",
        "phone":0,
        "note":"",
        "inout":"in",
        "cat":"lab",
        "imgUrl":"https://firebasestorage.googleapis.com/v0/b/academic-script-312305.appspot.com/o/IMG20220831142746.jpg?alt=media&token=f4852a82-2e4a-4dec-bf45-153b966d1b82",
        "lat":13.1830985308,
        "lng":74.9342512264
    },
    {
        "name":"ARM PROCESSOR Lab",
        "phone":0,
        "note":"2",
        "inout":"in",
        "cat":"lab",
        "imgUrl":"https://firebasestorage.googleapis.com/v0/b/academic-script-312305.appspot.com/o/IMG20220831142931.jpg?alt=media&token=35d1e662-7bf9-4352-a2e0-b8cfdae35db9",
        "lat":13.1830985308,
        "lng":74.9342512264
    },
    {
        "name":"Power Electronics Lab",
        "phone":0,
        "note":"3",
        "inout":"in",
        "cat":"lab",
        "imgUrl":"https://firebasestorage.googleapis.com/v0/b/academic-script-312305.appspot.com/o/IMG20220831143106.jpg?alt=media&token=3b09145f-4672-4177-aba6-b058ca06aed1",
        "lat":13.1830985308,
        "lng":74.9342512264
    },
    {
        "name":"Communication and Microwave Lab",
        "phone":0,
        "note":"3",
        "inout":"in",
        "cat":"lab",
        "imgUrl":"https://firebasestorage.googleapis.com/v0/b/academic-script-312305.appspot.com/o/IMG20220831143145.jpg?alt=media&token=eab0ae5f-5b8d-4511-9809-1dd8c4a440af",
        "lat":13.1830985308,
        "lng":74.9342512264
    },
    {
        "name":"Microprocessor/HDL Lab",
        "phone":0,
        "note":"3",
        "inout":"in",
        "cat":"lab",
        "imgUrl":"https://firebasestorage.googleapis.com/v0/b/academic-script-312305.appspot.com/o/IMG20220831143221.jpg?alt=media&token=eded50a9-ce68-471c-8b82-db9ca50d9024",
        "lat":13.1830985308,
        "lng":74.9342512264
    },
    {
        "name":"Project Lab 1",
        "phone":0,
        "note":"",
        "inout":"in",
        "cat":"lab",
        "imgUrl":"https://firebasestorage.googleapis.com/v0/b/academic-script-312305.appspot.com/o/IMG20220831143233.jpg?alt=media&token=2b0bdc7e-0699-444f-92e8-d6c58d9fd821",
        "lat":13.1830985308,
        "lng":74.9342512264
    },
    {
        "name":"Digital Signal Processing Lab",
        "phone":0,
        "note":"3",
        "inout":"in",
        "cat":"lab",
        "imgUrl":"https://firebasestorage.googleapis.com/v0/b/academic-script-312305.appspot.com/o/IMG20220831143255.jpg?alt=media&token=d664dc75-a78d-4c88-9fe1-8e59eec5bebc",
        "lat":13.1830985308,
        "lng":74.9342512264
    },
    {
        "name":"DSA Lab",
        "phone":0,
        "note":"",
        "inout":"in",
        "cat":"lab",
        "imgUrl":"https://firebasestorage.googleapis.com/v0/b/academic-script-312305.appspot.com/o/IMG20220831145030.jpg?alt=media&token=3b2f80da-4cef-42bd-b87d-fc7f986251a4",
        "lat":13.1825851135,
        "lng":74.9348061479
    },
    {
        "name":"Network Security Lab",
        "phone":0,
        "note":"",
        "inout":"in",
        "cat":"lab",
        "imgUrl":"https://firebasestorage.googleapis.com/v0/b/academic-script-312305.appspot.com/o/IMG20220831145047.jpg?alt=media&token=a6239c9f-5f68-48df-84a7-3b051e6fe847",
        "lat":13.1825851135,
        "lng":74.9348061479
    },
    {
        "name":"Web/Unix Programming Lab",
        "phone":0,
        "note":"",
        "inout":"in",
        "cat":"lab",
        "imgUrl":"https://firebasestorage.googleapis.com/v0/b/academic-script-312305.appspot.com/o/IMG20220831145055.jpg?alt=media&token=960c7f7b-d19c-49c3-a07d-2fff49408ced",
        "lat":13.1825851135,
        "lng":74.9348061479
    },
    {
        "name":"FAB Lab",
        "phone":0,
        "note":"",
        "inout":"in",
        "cat":"lab",
        "imgUrl":"https://firebasestorage.googleapis.com/v0/b/academic-script-312305.appspot.com/o/IMG20220831145219.jpg?alt=media&token=197bca43-10b7-4c28-8c38-4c0246836000",
        "lat":13.1825851135,
        "lng":74.9348061479
    },
    {
        "name":"MCA Computer Lab-4",
        "phone":0,
        "note":"",
        "inout":"in",
        "cat":"lab",
        "imgUrl":"https://firebasestorage.googleapis.com/v0/b/academic-script-312305.appspot.com/o/IMG20220831143427.jpg?alt=media&token=9ee92dc3-a98c-4e4c-b96c-9d868ebbd033",
        "lat":13.1833229338,
        "lng":74.9336073629
    },
    {
        "name":"MCA Computer Lab-1",
        "phone":0,
        "note":"",
        "inout":"in",
        "cat":"lab",
        "imgUrl":"https://firebasestorage.googleapis.com/v0/b/academic-script-312305.appspot.com/o/IMG20220831143432.jpg?alt=media&token=4add5794-1706-4a14-b205-05058ac1fad7",
        "lat":13.1833229338,
        "lng":74.9336073629
    },
    {
        "name":"Canara Bank",
        "phone":0,
        "note":"",
        "inout":"in",
        "cat":"other",
        "imgUrl":"https://firebasestorage.googleapis.com/v0/b/academic-script-312305.appspot.com/o/IMG20220831151644.jpg?alt=media&token=05a964f2-1a87-4a88-b174-bffad1339b77",
        "lat":13.1837674485,
        "lng":74.9333987216
    },
    {
        "name":"Research and Innovation Centre",
        "phone":0,
        "note":"",
        "inout":"in",
        "cat":"other",
        "imgUrl":"https://firebasestorage.googleapis.com/v0/b/academic-script-312305.appspot.com/o/IMG20220831151509.jpg?alt=media&token=766f9c0d-cf3b-4a62-b656-2b75f284719f",
        "lat":13.1836424547,
        "lng":74.9331806181
    },
    {
        "name":"Resident Engineer's Office",
        "phone":0,
        "note":"",
        "inout":"in",
        "cat":"other",
        "imgUrl":"https://firebasestorage.googleapis.com/v0/b/academic-script-312305.appspot.com/o/IMG20220831145920.jpg?alt=media&token=ca379039-8f17-474c-a280-b63295c3f493",
        "lat":13.1822444111,
        "lng":74.9343052595
    },
    {
        "name":"Post Office",
        "phone":0,
        "note":"",
        "inout":"in",
        "cat":"other",
        "imgUrl":"https://firebasestorage.googleapis.com/v0/b/academic-script-312305.appspot.com/o/IMG20220831151413.jpg?alt=media&token=ab0a993a-2df6-4775-b68b-f197f85f64ea",
        "lat":13.1835171456,
        "lng":74.9331032198
    },
    {
        "name":"SAC",
        "phone":0,
        "note":"",
        "inout":"in",
        "cat":"other",
        "imgUrl":"https://firebasestorage.googleapis.com/v0/b/academic-script-312305.appspot.com/o/IMG20220831150103.jpg?alt=media&token=ccec9d20-cf7a-494f-bc06-bea557351d6b",
        "lat":13.1828242317,
        "lng":74.9337794077
    },
    {
        "name":"CFSD",
        "phone":0,
        "note":"",
        "inout":"in",
        "cat":"other",
        "imgUrl":"https://firebasestorage.googleapis.com/v0/b/academic-script-312305.appspot.com/o/IMG20220831150254.jpg?alt=media&token=56c1e1e6-ee2b-4665-9be1-1e4b498e7090",
        "lat":13.1833229338,
        "lng":74.9336073629
    },
    {
        "name":"NAIN",
        "phone":0,
        "note":"",
        "inout":"in",
        "cat":"other",
        "imgUrl":"https://firebasestorage.googleapis.com/v0/b/academic-script-312305.appspot.com/o/IMG20220831144907.jpg?alt=media&token=efd5ec2a-04fd-418d-81e1-867ec116dc03",
        "lat":13.1825658804,
        "lng":74.9349184923
    },
    {
        "name":"Entrepreneurship Development Cell",
        "phone":0,
        "note":"",
        "inout":"in",
        "cat":"other",
        "imgUrl":"https://firebasestorage.googleapis.com/v0/b/academic-script-312305.appspot.com/o/IMG20220831144932.jpg?alt=media&token=119a66ea-167a-48e4-99c4-19a6097472a1",
        "lat":13.1825188729,
        "lng":74.9347005628
    },
    {
        "name":"Atal Incubation Centre",
        "phone":0,
        "note":"",
        "inout":"in",
        "cat":"other",
        "imgUrl":"https://firebasestorage.googleapis.com/v0/b/academic-script-312305.appspot.com/o/IMG20220831145302.jpg?alt=media&token=8c781389-e768-4421-9f46-683132369317",
        "lat":13.1824968821,
        "lng":74.934774911
    },
    {
        "name":"Xerox 1",
        "phone":0,
        "note":"",
        "inout":"in",
        "cat":"print",
        "imgUrl":"",
        "lat":13.1833229338,
        "lng":74.9336073629
    },
    {
        "name":"Xerox 2",
        "phone":0,
        "note":"ground floor",
        "inout":"in",
        "cat":"print",
        "imgUrl":"",
        "lat":13.1828296066,
        "lng":74.9332683741
    },
    {
        "name":"Ground Zero cyber",
        "phone":0,
        "note":"print/xerox/gznitte@gmail.com",
        "inout":"out",
        "cat":"print",
        "imgUrl":"",
        "lat":13.183406595,
        "lng":74.9365623436
    },
    {
        "name":"Sanmathi garden",
        "phone":0,
        "note":"",
        "inout":"out",
        "cat":"hangout",
        "imgUrl":"",
        "lat":13.1815501221,
        "lng":74.9379710859
    },
    {
        "name":"Clinic",
        "phone":0,
        "note":"ground floor",
        "inout":"in",
        "cat":"other",
        "imgUrl":"",
        "lat":13.1831046896,
        "lng":74.9345962496
    },
    {
        "name":"BC Alva Sports Complex",
        "phone":0,
        "note":"",
        "inout":"out",
        "cat":"sport",
        "imgUrl":"https://firebasestorage.googleapis.com/v0/b/academic-script-312305.appspot.com/o/bcalva.jpg?alt=media&token=4394e978-805e-4f62-bfce-c5e5c1be3a68",
        "lat":13.1801995187,
        "lng":74.9349375934
    },
    {
        "name":"BC Alva Memorial Indoor Stadium",
        "phone":0,
        "note":"",
        "inout":"out",
        "cat":"sport",
        "imgUrl":"",
        "lat":13.1825517765,
        "lng":74.9387159226
    },
    {
        "name":"NET Gents Main Hostel- Block 3",
        "phone":0,
        "note":"",
        "inout":"out",
        "cat":"hostel",
        "imgUrl":"",
        "lat":13.1837142464,
        "lng":74.9388146832
    },
    {
        "name":"NET PG Girls Hostel",
        "phone":0,
        "note":"",
        "inout":"out",
        "cat":"hostel",
        "imgUrl":"",
        "lat":13.182788047,
        "lng":74.9366512206
    },
    {
        "name":"Sri Durga General Store",
        "phone":0,
        "note":"",
        "inout":"out",
        "cat":"shop",
        "imgUrl":"https://firebasestorage.googleapis.com/v0/b/academic-script-312305.appspot.com/o/rohan.jpg?alt=media&token=9c1479df-2bc4-403b-a210-4620bea37b32",
        "lat":13.1847247127,
        "lng":74.936141207
    },
    {
        "name":"Shabari store",
        "phone":0,
        "note":"",
        "inout":"out",
        "cat":"shop",
        "imgUrl":"",
        "lat":13.1831960614,
        "lng":74.9365755534
    },
    {
        "name":"Nitte Co-op store",
        "phone":0,
        "note":"",
        "inout":"in",
        "cat":"shop",
        "imgUrl":"https://firebasestorage.googleapis.com/v0/b/academic-script-312305.appspot.com/o/IMG20220831144414.jpg?alt=media&token=27f11a80-456d-4fed-a169-a13bf9c67934",
        "lat":13.1824666077,
        "lng":74.9346192903
    },
    {
        "name":"Rohan's canteen & shop",
        "phone":0,
        "note":"",
        "inout":"out",
        "cat":"shop",
        "imgUrl":"https://firebasestorage.googleapis.com/v0/b/academic-script-312305.appspot.com/o/rohan.jpg?alt=media&token=9c1479df-2bc4-403b-a210-4620bea37b32",
        "lat":13.1817310779,
        "lng":74.9341996539
    },
    {
        "name":"Hotel Sri Durga Prasad",
        "phone":0,
        "note":"",
        "inout":"out",
        "cat":"food",
        "imgUrl":"",
        "lat":13.1845937866,
        "lng":74.9362244157
    },
    {
        "name":"Pavi Digital Studio",
        "phone":0,
        "note":"",
        "inout":"out",
        "cat":"other",
        "imgUrl":"",
        "lat":13.1845789936,
        "lng":74.9362261421
    },
    {
        "name":"Nitte fancy",
        "phone":-2147483648,
        "note":"",
        "inout":"out",
        "cat":"shop",
        "imgUrl":"https://firebasestorage.googleapis.com/v0/b/academic-script-312305.appspot.com/o/fancy.jpg?alt=media&token=0b6415ba-fdd7-42b7-80de-252401649936",
        "lat":13.1845392689,
        "lng":74.9361878919
    },
    {
        "name":"Sri Durga Mens Parlour",
        "phone":-2147483648,
        "note":"Closed on Tuesdays",
        "inout":"out",
        "cat":"other",
        "imgUrl":"https://firebasestorage.googleapis.com/v0/b/academic-script-312305.appspot.com/o/durgasalon.jpg?alt=media&token=2d3f963b-2657-4f02-a88d-17f3fd23705d",
        "lat":13.184542113,
        "lng":74.9361565321
    },
    {
        "name":"Om Sai general store",
        "phone":-2147483648,
        "note":"",
        "inout":"out",
        "cat":"shop",
        "imgUrl":"https://firebasestorage.googleapis.com/v0/b/academic-script-312305.appspot.com/o/om%20sai.jpg?alt=media&token=fb303738-c7e3-4737-9633-2826fd5b2360",
        "lat":13.1845367861,
        "lng":74.9361878919
    },
    {
        "name":"Malasa Footware",
        "phone":-2147483648,
        "note":"",
        "inout":"out",
        "cat":"shop",
        "imgUrl":"https://firebasestorage.googleapis.com/v0/b/academic-script-312305.appspot.com/o/malasa.jpg?alt=media&token=c744ecb6-8a80-4f09-a1e2-35e53009c7cd",
        "lat":13.184943157,
        "lng":74.9361066622
    },
    {
        "name":"Hegde corner",
        "phone":-2147483648,
        "note":"",
        "inout":"out",
        "cat":"food",
        "imgUrl":"https://firebasestorage.googleapis.com/v0/b/academic-script-312305.appspot.com/o/hegde.jpg?alt=media&token=00f92fd1-e885-4c07-89f1-d218230f06f9",
        "lat":13.1853345021,
        "lng":74.936904902
    },
    {
        "name":"Shrajan store",
        "phone":-2147483648,
        "note":"",
        "inout":"out",
        "cat":"shop",
        "imgUrl":"https://firebasestorage.googleapis.com/v0/b/academic-script-312305.appspot.com/o/shrajan.jpg?alt=media&token=72f61a52-3835-4056-8d6f-3c1169dcef45",
        "lat":13.1857945558,
        "lng":74.9389273375
    },
    {
        "name":"Janani hairdresser",
        "phone":-2147483648,
        "note":"",
        "inout":"out",
        "cat":"shop",
        "imgUrl":"https://firebasestorage.googleapis.com/v0/b/academic-script-312305.appspot.com/o/janani.jpg?alt=media&token=545f9e65-d5b3-448a-91af-5d9b86ab7ac8",
        "lat":13.185893936,
        "lng":74.9388935356
    },
    {
        "name":"Porlu collections",
        "phone":0,
        "note":"",
        "inout":"out",
        "cat":"shop",
        "imgUrl":"https://firebasestorage.googleapis.com/v0/b/academic-script-312305.appspot.com/o/porlu.jpg?alt=media&token=7625a2ea-b1ba-49dd-b301-1d251fe53054",
        "lat":13.185838589,
        "lng":74.939043351
    },
    {
        "name":"Kamath Store",
        "phone":-2147483648,
        "note":"",
        "inout":"out",
        "cat":"shop",
        "imgUrl":"https://firebasestorage.googleapis.com/v0/b/academic-script-312305.appspot.com/o/kamath.jpg?alt=media&token=0c1a332d-5f76-4df0-af99-8f91c7274c41",
        "lat":13.1858519904,
        "lng":74.9391691961
    },
    {
        "name":"NVS stores",
        "phone":-2147483648,
        "note":"",
        "inout":"out",
        "cat":"shop",
        "imgUrl":"https://firebasestorage.googleapis.com/v0/b/academic-script-312305.appspot.com/o/NVS.jpg?alt=media&token=dde9dc37-16b7-4f6c-90ef-ebc162577e32",
        "lat":13.1858214488,
        "lng":74.9393513532
    },
    {
        "name":"Radha Krishna hotel",
        "phone":-2147483648,
        "note":"",
        "inout":"out",
        "cat":"food",
        "imgUrl":"https://res.cloudinary.com/do1jebbgp/image/upload/v1661792466/NMAMIT-Map/radhakr_e4ouxu.jpg",
        "lat":13.1854438374,
        "lng":74.938473671
    },
    {
        "name":"Menz Addict",
        "phone":-2147483648,
        "note":"clothes n shit",
        "inout":"out",
        "cat":"shop",
        "imgUrl":"https://firebasestorage.googleapis.com/v0/b/academic-script-312305.appspot.com/o/menzaddict.jpg?alt=media&token=13ec476d-237f-49a0-8636-d84a14abecd7",
        "lat":13.1853916074,
        "lng":74.9383932047
    },
    {
        "name":"Pingara hair dressers",
        "phone":-2147483648,
        "note":"",
        "inout":"out",
        "cat":"other",
        "imgUrl":"https://firebasestorage.googleapis.com/v0/b/academic-script-312305.appspot.com/o/pingara.jpg?alt=media&token=e7b681cd-3f35-41ce-bf6f-0787c6dbd83c",
        "lat":13.1854542834,
        "lng":74.9382778697
    },
    {
        "name":"Kateeleshwari food corner",
        "phone":-2147483648,
        "note":"",
        "inout":"out",
        "cat":"food",
        "imgUrl":"https://firebasestorage.googleapis.com/v0/b/academic-script-312305.appspot.com/o/kateel.jpg?alt=media&token=64cb03a1-4536-4bd7-a6e6-8f7f32b0446a",
        "lat":13.1854020534,
        "lng":74.9382054501
    },
    {
        "name":"Kateeleshwari fruits",
        "phone":-2147483648,
        "note":"",
        "inout":"out",
        "cat":"shop",
        "imgUrl":"https://firebasestorage.googleapis.com/v0/b/academic-script-312305.appspot.com/o/kateel.jpg?alt=media&token=64cb03a1-4536-4bd7-a6e6-8f7f32b0446a",
        "lat":13.1854098879,
        "lng":74.9379667335
    },
    {
        "name":"Government hospital",
        "phone":0,
        "note":"",
        "inout":"out",
        "cat":"med",
        "imgUrl":"https://firebasestorage.googleapis.com/v0/b/academic-script-312305.appspot.com/o/govthosp.jpg?alt=media&token=c91a3d9a-26be-4a41-b668-a4a1afb64544",
        "lat":13.1868011722,
        "lng":74.9386888551
    },
    {
        "name":"Bus stop",
        "phone":0,
        "note":"",
        "inout":"out",
        "cat":"stop",
        "imgUrl":"",
        "lat":13.1840813373,
        "lng":74.9349180856
    },
    {
        "name":"Auto stand",
        "phone":0,
        "note":"",
        "inout":"out",
        "cat":"stop",
        "imgUrl":"",
        "lat":13.1842682109,
        "lng":74.935179559
    },
    {
        "name":"Iyengar bakery",
        "phone":0,
        "note":"",
        "inout":"out",
        "cat":"shop",
        "imgUrl":"https://firebasestorage.googleapis.com/v0/b/academic-script-312305.appspot.com/o/iyengar.jpg?alt=media&token=2dbb23c0-0268-4158-b86b-a39fde5e888e",
        "lat":13.1845440336,
        "lng":74.9362382473
    },
    {
        "name":"Crystal Clean",
        "phone":0,
        "note":"",
        "inout":"out",
        "cat":"vehicle",
        "imgUrl":"https://firebasestorage.googleapis.com/v0/b/academic-script-312305.appspot.com/o/IMG20220831152339.jpg?alt=media&token=57958d91-8c6b-4c87-8db3-c6451f225033",
        "lat":13.1849921964,
        "lng":74.9301545805
    },
    {
        "name":"Nitte Laxmi Fuels",
        "phone":0,
        "note":"",
        "inout":"out",
        "cat":"vehicle",
        "imgUrl":"",
        "lat":13.1853415828,
        "lng":74.9394025262
    },
    {
        "name":"Om Sai Ram Auto Works",
        "phone":0,
        "note":"",
        "inout":"out",
        "cat":"vehicle",
        "imgUrl":"",
        "lat":13.1851488663,
        "lng":74.9464619187
    },
    {
        "name":"Nitte Boys PG",
        "phone":0,
        "note":"",
        "inout":"out",
        "cat":"hostel",
        "imgUrl":"https://firebasestorage.googleapis.com/v0/b/academic-script-312305.appspot.com/o/hosBOYSPG.jpg?alt=media&token=99ccb0c7-d590-4f38-a6d6-0186fdcead92",
        "lat":13.180676199,
        "lng":74.9358862091
    },
    {
        "name":"Ratna's",
        "phone":0,
        "note":"",
        "inout":"out",
        "cat":"food",
        "imgUrl":"https://firebasestorage.googleapis.com/v0/b/academic-script-312305.appspot.com/o/ratnas.jpg?alt=media&token=355a3bcd-0634-4f43-a787-610039ee5bdb",
        "lat":13.1852182333,
        "lng":74.9397977683
    },
    {
        "name":"Nitte Co-op store",
        "phone":0,
        "note":"",
        "inout":"out",
        "cat":"shop",
        "imgUrl":"",
        "lat":0.0,
        "lng":0.0
    },
    {
        "name":"Nitte Co-op store",
        "phone":0,
        "note":"",
        "inout":"out",
        "cat":"shop",
        "imgUrl":"",
        "lat":0.0,
        "lng":0.0
    }
]